[
  {
    "id": 1,
    "name": "富士山麓キャンプ場",
    "region": "関東",
    "address": "静岡県富士宮市粟倉2745",
    "latitude": 35.3606,
    "longitude": 138.7186,
    "price": 5000,
    "rating": 4,
    "has_shower": true,
    "has_electricity": true,
    "pet_friendly": false,
    "has_hot_spring": true,
    "has_wifi": false,
    "has_store": true,
    "has_rental": true,
    "description": "富士山の麓に位置する自然豊かなキャンプ場。四季折々の富士山の景色を楽しめます。温泉施設も併設されており、キャンプの疲れを癒すことができます。"
  },
  {
    "id": 2,
    "name": "北海道大自然の森キャンプ場",
    "region": "北海道",
    "address": "北海道札幌市南区定山渓温泉東3丁目",
    "latitude": 42.9538,
    "longitude": 141.1580,
    "price": 3500,
    "rating": 5,
    "has_shower": true,
    "has_electricity": true,
    "pet_friendly": true,
    "has_hot_spring": true,
    "has_wifi": false,
    "has_store": true,
    "has_rental": true,
    "description": "北海道の大自然を満喫できるキャンプ場。広大な敷地内には清流が流れ、夏は川遊び、冬は雪景色を楽しめます。ペットと一緒に楽しめるエリアもあります。"
  },
  {
    "id": 3,
    "name": "瀬戸内海オーシャンビューキャンプ場",
    "region": "中国",
    "address": "広島県尾道市向島町",
    "latitude": 34.3688,
    "longitude": 133.1033,
    "price": 4500,
    "rating": 4,
    "has_shower": true,
    "has_electricity": true,
    "pet_friendly": false,
    "has_hot_spring": false,
    "has_wifi": true,
    "has_store": true,
    "has_rental": false,
    "description": "瀬戸内海を一望できる高台にあるキャンプ場。サイトからは島々が点在する美しい海の景色を楽しめます。夕日の眺めは絶景です。"
  },
  {
    "id": 4,
    "name": "奥飛騨森林キャンプ場",
    "region": "中部",
    "address": "岐阜県高山市奥飛騨温泉郷平湯",
    "latitude": 36.1480,
    "longitude": 137.5533,
    "price": 6000,
    "rating": 5,
    "has_shower": true,
    "has_electricity": true,
    "pet_friendly": false,
    "has_hot_spring": true,
    "has_wifi": false,
    "has_store": true,
    "has_rental": true,
    "description": "奥飛騨の山々に囲まれた静かなキャンプ場。近くには温泉があり、キャンプの後は天然温泉で疲れを癒せます。星空観察にも最適です。"
  },
  {
    "id": 5,
    "name": "九十九里浜サンセットキャンプ場",
    "region": "関東",
    "address": "千葉県山武市蓮沼ホ311",
    "latitude": 35.5889,
    "longitude": 140.4911,
    "price": 4000,
    "rating": 3,
    "has_shower": true,
    "has_electricity": false,
    "pet_friendly": true,
    "has_hot_spring": false,
    "has_wifi": true,
    "has_store": true,
    "has_rental": true,
    "description": "九十九里浜に面したビーチサイドキャンプ場。波の音を聞きながら過ごせる癒しの空間です。サーフィンやビーチコーミングも楽しめます。"
  },
  {
    "id": 6,
    "name": "阿蘇グランピングリゾート",
    "region": "九州・沖縄",
    "address": "熊本県阿蘇市一の宮町宮地6029-1",
    "latitude": 32.8839,
    "longitude": 131.0964,
    "price": 15000,
    "rating": 5,
    "has_shower": true,
    "has_electricity": true,
    "pet_friendly": false,
    "has_hot_spring": true,
    "has_wifi": true,
    "has_store": true,
    "has_rental": true,
    "description": "阿蘇の大自然を背景に、ラグジュアリーなグランピング体験ができるリゾート。設備の整ったテントで快適に過ごせます。地元の食材を使った食事サービスも人気です。"
  },
  {
    "id": 7,
    "name": "琵琶湖畔キャンプビレッジ",
    "region": "関西",
    "address": "滋賀県高島市マキノ町西浜763-2",
    "latitude": 35.4281,
    "longitude": 136.0264,
    "price": 5500,
    "rating": 4,
    "has_shower": true,
    "has_electricity": true,
    "pet_friendly": true,
    "has_hot_spring": false,
    "has_wifi": true,
    "has_store": true,
    "has_rental": true,
    "description": "琵琶湖のほとりにある家族向けキャンプ場。湖水浴やカヌー、釣りなどのアクティビティが充実しています。子供向けの遊具も完備。"
  },
  {
    "id": 8,
    "name": "四万十川リバーサイドキャンプ場",
    "region": "四国",
    "address": "高知県四万十市西土佐用井1110-2",
    "latitude": 33.1964,
    "longitude": 132.9211,
    "price": 3000,
    "rating": 4,
    "has_shower": true,
    "has_electricity": false,
    "pet_friendly": true,
    "has_hot_spring": false,
    "has_wifi": false,
    "has_store": false,
    "has_rental": true,
    "description": "日本最後の清流・四万十川のほとりにあるキャンプ場。川遊びや釣りが楽しめ、自然を満喫できます。夏は川辺で涼しく過ごせます。"
  },
  {
    "id": 9,
    "name": "八甲田山麓フォレストキャンプ場",
    "region": "東北",
    "address": "青森県青森市荒川南荒川山国有林",
    "latitude": 40.6586,
    "longitude": 140.9036,
    "price": 3500,
    "rating": 3,
    "has_shower": false,
    "has_electricity": false,
    "pet_friendly": true,
    "has_hot_spring": false,
    "has_wifi": false,
    "has_store": false,
    "has_rental": false,
    "description": "八甲田山の麓にある本格的な森林キャンプ場。自然をそのまま生かした原始的なキャンプが楽しめます。秋の紅葉シーズンは特に人気です。"
  },
  {
    "id": 10,
    "name": "沖縄ビーチサイドキャンプリゾート",
    "region": "九州・沖縄",
    "address": "沖縄県国頭郡本部町備瀬1107-1",
    "latitude": 26.6582,
    "longitude": 127.8798,
    "price": 7000,
    "rating": 5,
    "has_shower": true,
    "has_electricity": true,
    "pet_friendly": false,
    "has_hot_spring": false,
    "has_wifi": true,
    "has_store": true,
    "has_rental": true,
    "description": "沖縄の美しいビーチに隣接したリゾート型キャンプ場。透明度の高い海でシュノーケリングやダイビングが楽しめます。沖縄料理を楽しめるレストランも併設。"
  }
] 